,Date,Time,mavlink_system_time_t.time_unix_usec,mavlink_system_time_t.time_boot_ms,mavlink_scaled_pressure_t.press_abs,mavlink_scaled_pressure_t.press_diff,mavlink_scaled_pressure_t.temperature,mavlink_power_status_t.Vcc,mavlink_power_status_t.Vservo,mavlink_attitude_t.roll,mavlink_attitude_t.pitch,mavlink_attitude_t.yaw,mavlink_attitude_t.rollspeed,mavlink_attitude_t.pitchspeed,mavlink_attitude_t.yawspeed,mavlink_ahrs_t.omegaIx,mavlink_ahrs_t.omegaIy,mavlink_ahrs_t.omegaIz,mavlink_ahrs_t.accel_weight,mavlink_ahrs_t.renorm_val,mavlink_ahrs_t.error_rp,mavlink_ahrs_t.error_yaw,mavlink_global_position_int_t.lat,mavlink_global_position_int_t.lon,mavlink_global_position_int_t.alt,mavlink_global_position_int_t.relative_alt,mavlink_global_position_int_t.vx,mavlink_global_position_int_t.vy,mavlink_global_position_int_t.vz,mavlink_wind_t.direction,mavlink_wind_t.speed,mavlink_wind_t.speed_z,mavlink_servo_output_raw_t.servo1_raw,mavlink_servo_output_raw_t.servo2_raw,mavlink_servo_output_raw_t.servo3_raw,mavlink_servo_output_raw_t.servo4_raw,mavlink_servo_output_raw_t.servo5_raw,mavlink_servo_output_raw_t.servo6_raw,mavlink_servo_output_raw_t.servo7_raw,mavlink_servo_output_raw_t.servo8_raw,mavlink_servo_output_raw_t.servo9_raw,mavlink_servo_output_raw_t.servo10_raw,mavlink_servo_output_raw_t.servo11_raw,mavlink_servo_output_raw_t.servo12_raw,mavlink_servo_output_raw_t.servo13_raw,mavlink_servo_output_raw_t.servo14_raw,mavlink_servo_output_raw_t.servo15_raw,mavlink_servo_output_raw_t.servo16_raw,mavlink_vfr_hud_t.airspeed,mavlink_vfr_hud_t.groundspeed,mavlink_vfr_hud_t.climb,mavlink_vfr_hud_t.heading,mavlink_vfr_hud_t.throttle,mavlink_gps_raw_int_t.satellites_visible,mavlink_nav_controller_output_t.nav_roll,mavlink_nav_controller_output_t.nav_pitch,mavlink_nav_controller_output_t.alt_error,mavlink_nav_controller_output_t.aspd_error,mavlink_nav_controller_output_t.xtrack_error,mavlink_nav_controller_output_t.nav_bearing,mavlink_nav_controller_output_t.target_bearing
78000,9/12/2019, 10:01:41 ,1568260000000000.0,1617773,903.367,0.8662190000000001,6112,4967,5015,0.34388559999999996,0.3058031,-2.1400200000000003,-0.07533956,-0.1259989,0.24453470000000002,-0.003259877,-0.002315852,-0.002132311,0,0,0.02103462,0.1989963,-7.0387771,106.9219959,1019060,94995,-224,-1794,-366,-175.7146,4.918704,0.0,1615,1637,1900,1406,1483,1473,0,0,0,0,0,0,0,0,0,0,13.05676,18.03019,3.584283,238,100,23,43.0,15.0,5.01,-655.9611,267.9691,27,27
78013,9/12/2019, 10:01:41 ,1568260000000000.0,1618114,903.2682,0.830918,6111,5043,4920,0.34061779999999997,0.2775933,-2.056314,-0.25635589999999997,0.06701026,0.2238576,-0.003258393,-0.002312577,-0.002123531,0,0,0.02306036,0.20661849999999998,-7.0387820,106.9219473,1020180,96114,-166,-1825,-348,-175.4639,4.9635739999999995,0.0,1612,1613,1884,1407,1481,1471,0,0,0,0,0,0,0,0,0,0,12.737960000000001,18.32682,2.6612560000000003,243,100,23,43.07,13.8,4.25,-692.5703,269.983,28,28
78030,9/12/2019, 10:01:41 ,1568260000000000.0,1618430,903.1337,0.7446228,6110,5072,4995,0.3752179,0.27182340000000005,-1.982833,0.07973638,-0.06908534,0.21613870000000002,-0.003253382,-0.002307304,-0.002112981,0,0,0.02066266,0.20313820000000002,-7.0387847,106.9219044,1021100,97036,-93,-1851,-365,-175.2923,4.990238,0.0,1601,1612,1820,1410,1475,1462,0,0,0,0,0,0,0,0,0,0,12.597669999999999,18.57903,3.63554,246,90,23,43.56,7.7,2.48,-711.9579,274.8929,29,29
78047,9/12/2019, 10:01:42 ,1568260000000000.0,1618773,902.9664,0.9083937,6108,5067,5017,0.47644659999999994,0.19742320000000002,-1.927914,-0.05983577,-0.16005450000000002,0.09766044,-0.003253148,-0.002306371,-0.002105927,0,0,0.01975168,0.189769,-7.0387851,106.9218128,1022690,98623,28,-1914,-220,-175.1138,5.014643,0.0,1586,1596,1732,1414,1467,1451,0,0,0,0,0,0,0,0,0,0,12.697569999999999,19.014120000000002,3.2255220000000002,248,78,23,43.86,4.73,1.61,-719.2983,277.7281,30,30
78060,9/12/2019, 10:01:42 ,1568260000000000.0,1619051,902.9384,0.7934988000000001,6107,5085,4981,0.49799079999999996,0.1372146,-1.895945,0.02554038,-0.11847200000000001,0.2131397,-0.003255433,-0.0023036379999999998,-0.002097482,0,0,0.01873562,0.1788414,-7.0387833,106.9217644,1023150,99083,88,-1933,-121,-174.9244,5.042969,0.0,1589,1605,1676,1414,1469,1453,0,0,0,0,0,0,0,0,0,0,12.924539999999999,19.24241,3.9526879999999998,249,70,23,44.29,3.06,1.18,-708.7051,279.5827,30,30
78074,9/12/2019, 10:01:42 ,1568260000000000.0,1619373,902.9161,0.7099627,6106,5085,4969,0.5213693,0.07082981,-1.861904,0.1426339,-0.05751987,0.1804319,-0.003256044,-0.002301871,-0.002086852,0,0,0.0191053,0.173681,-7.0387796,106.9217158,1023400,99336,180,-1954,-44,-174.7276,5.070665,0.0,1579,1636,1588,1417,1463,1444,0,0,0,0,0,0,0,0,0,0,12.253169999999999,19.512320000000003,2.1712569999999998,252,64,23,44.6,1.07,0.79,-703.5692,282.305,31,31
78092,9/12/2019, 10:01:43 ,1568260000000000.0,1619730,902.9026,0.7837456,6104,5048,4971,0.5634704,0.04549946,-1.8072689999999998,-0.1383456,0.0258613,0.1785664,-0.003258,-0.00229759,-0.002072922,0,0,0.02412916,0.1785075,-7.0387736,106.9216661,1023410,99342,275,-1972,41,-174.4647,5.108093,0.0,1576,1639,1572,1417,1462,1443,0,0,0,0,0,0,0,0,0,0,12.19678,19.81608,0.5180610999999999,254,60,23,44.8,-1.05,0.69,-680.0011,286.5975,33,33
78105,9/12/2019, 10:01:43 ,1568260000000000.0,1620016,902.9399,0.7806451,6102,5085,4976,0.5401573000000001,0.0207092,-1.757065,-0.2230817,0.08166418,0.2385328,-0.003253716,-0.002289535,-0.0020584139999999997,0,0,0.03326761,0.1863787,-7.0387650,106.9216163,1023200,99135,367,-1982,120,-174.2341,5.139652,0.0,1592,1642,1556,1413,1470,1455,0,0,0,0,0,0,0,0,0,0,12.35065,20.14049,-0.01384735,258,58,23,44.83,-1.61,0.97,-678.7623,288.972,34,34
78118,9/12/2019, 10:01:43 ,1568260000000000.0,1620291,902.9613,0.8340124,6102,5069,4954,0.519169,-0.01857258,-1.6967889999999999,0.06708554,-0.04541369,0.23896910000000002,-0.003252943,-0.002286277,-0.0020501960000000002,0,0,0.03191717,0.192385,-7.0387541,106.9215665,1022790,98722,477,-1991,174,-174.0745,5.160539,0.0,1588,1662,1548,1414,1468,1452,0,0,0,0,0,0,0,0,0,0,12.27923,20.47104,-0.2430511,262,56,23,44.82,-1.73,1.28,-687.9797,290.4441,34,34
78131,9/12/2019, 10:01:44 ,1568260000000000.0,1620613,902.9805,0.9113344999999999,6100,5067,4942,0.5527545,-0.0333582,-1.617216,0.3355671,0.1859431,0.25440999999999997,-0.0032532190000000003,-0.002280778,-0.002039557,0,0,0.02579397,0.2048942,-7.0387415,106.9215197,1022240,98177,556,-1991,255,-173.7738,5.198432,0.0,1575,1664,1556,1418,1461,1442,0,0,0,0,0,0,0,0,0,0,12.923160000000001,20.67739,-1.0121879999999999,265,56,23,44.81,-1.54,1.93,-710.0109,292.54200000000003,35,35
78145,9/12/2019, 10:01:44 ,1568260000000000.0,1620914,903.1694,0.9586899999999999,6099,5098,4969,0.5809338000000001,-0.02582054,-1.537575,0.0723426,0.2023801,0.2639855,-0.003260978,-0.0022828970000000003,-0.002029848,0,0,0.03011954,0.2164716,-7.0387247,106.9214660,1021380,97315,664,-1987,333,-173.5477,5.222663,0.0,1573,1668,1572,1419,1460,1440,0,0,0,0,0,0,0,0,0,0,13.10179,20.98566,-3.4311019999999997,271,58,23,44.82,-1.15,2.5,-725.1278,293.856,36,36
78162,9/12/2019, 10:01:44 ,1568260000000000.0,1621251,903.2589999999999,0.9334222,6098,5053,5012,0.5757552,-0.02960233,-1.457075,0.04571201,0.1170748,0.2201447,-0.0032590320000000002,-0.002275905,-0.002018815,0,0,0.02409722,0.22667649999999998,-7.0387033,106.9214095,1020270,96205,825,-1971,358,-173.3118,5.24685,0.0,1577,1682,1580,1417,1462,1443,0,0,0,0,0,0,0,0,0,0,13.388110000000001,21.40863,-3.3612800000000003,276,60,23,44.82,0.87,4.58,-735.6647,297.1398,38,38
78176,9/12/2019, 10:01:45 ,1568260000000000.0,1621572,903.2786,1.0105110000000002,6096,5082,4962,0.5307611,-0.02620813,-1.374963,-0.1900572,0.1531284,0.2315683,-0.003256674,-0.002271851,-0.0020077339999999997,0,0,0.02772778,0.2349661,-7.0386559,106.9213156,1018400,94330,1117,-1907,313,-173.0803,5.271122,0.0,1591,1683,1596,1413,1470,1454,0,0,0,0,0,0,0,0,0,0,13.838389999999999,21.782120000000003,-2.7648479999999998,281,62,23,44.82,1.69,5.29,-748.3846,297.9596,38,38
78190,9/12/2019, 10:01:45 ,1568260000000000.0,1621869,903.5188,0.9940056999999999,6094,5059,4904,0.5067979,-0.02216191,-1.2948790000000001,-0.3387013,0.02138377,0.1793514,-0.0032576040000000003,-0.002267071,-0.002000498,0,0,0.02755518,0.2370356,-7.0386247,106.9212687,1017780,93710,1314,-1865,170,-172.8479,5.2909489999999995,0.0,1603,1694,1620,1410,1476,1464,0,0,0,0,0,0,0,0,0,0,14.12434,22.46601,-3.5224519999999995,286,65,23,44.82,2.67,6.13,-750.9684,298.8345,39,39
78203,9/12/2019, 10:01:45 ,1568260000000000.0,1622131,903.4981,1.084926,6093,5056,5000,0.42449209999999993,-0.02756934,-1.2493969999999999,-0.2240276,0.23032510000000003,0.1841944,-0.003258306,-0.00226612,-0.001992023,0,0,0.02324286,0.24365720000000002,-7.0385923,106.9212254,1017370,93302,1402,-1832,153,-172.6122,5.309647,0.0,1624,1680,1628,1403,1488,1480,0,0,0,0,0,0,0,0,0,0,14.345089999999999,22.96416,-4.198753,288,66,23,44.83,3.05,6.45,-759.9377,299.1828,40,40
78216,9/12/2019, 10:01:45 ,1568260000000000.0,1622430,903.5487,1.145692,6092,5045,4988,0.38286079999999995,0.01076262,-1.182517,-0.02129002,0.17914129999999998,0.175257,-0.003256968,-0.002259489,-0.001985684,0,0,0.023697299999999998,0.24224339999999997,-7.0385581,106.9211833,1017070,93004,1495,-1783,87,-172.4503,5.3223080000000005,0.0,1628,1670,1636,1402,1490,1484,0,0,0,0,0,0,0,0,0,0,14.507010000000001,23.22588,-0.4080781,293,67,23,44.83,3.63,6.88,-834.1343,299.5414,41,41
78235,9/12/2019, 10:01:46 ,1568260000000000.0,1622775,903.6161,1.1309559999999999,6091,5049,5000,0.5099232,0.0412187,-1.046673,0.2720194,0.2503964,0.104049,-0.0032559,-0.002254517,-0.001977931,0,0,0.02450708,0.2365371,-7.0385219,106.9211428,1016910,92844,1592,-1722,52,-172.2237,5.343083999999999,0.0,1612,1672,1652,1407,1481,1471,0,0,0,0,0,0,0,0,0,0,14.753870000000001,23.455029999999997,-1.9555639999999999,297,69,23,44.8,4.18,7.21,-854.5093,299.6318,43,43
78249,9/12/2019, 10:01:46 ,1568260000000000.0,1623129,903.6295,0.9694219999999999,6089,5051,5012,0.5670956,0.07876507,-0.9818853999999999,0.20839169999999999,0.2125511,0.1116355,-0.003271175,-0.002263447,-0.001980416,0,0,0.02672728,0.229498,-7.0384799,106.9211006,1016780,92714,1700,-1648,55,-172.0316,5.352780999999999,0.0,1594,1669,1668,1412,1471,1456,0,0,0,0,0,0,0,0,0,0,14.7998,23.66606,-1.052991,301,72,23,44.73,4.37,7.31,-863.1493,299.4498,44,44
78264,9/12/2019, 10:01:46 ,1568260000000000.0,1623450,903.6277,0.980482,6088,5056,4998,0.5533347,0.1046094,-0.9267962,-0.2521729,0.08681422,0.1586398,-0.003264517,-0.002256288,-0.001966962,0,0,0.030632599999999996,0.21625450000000002,-7.0383917,106.9210264,1016590,92525,1929,-1470,24,-171.7749,5.3665910000000006,0.0,1595,1653,1692,1412,1472,1458,0,0,0,0,0,0,0,0,0,0,14.138760000000001,24.06495,0.08014043,305,74,23,44.63,4.54,7.39,-862.3951,299.1249,44,44
78282,9/12/2019, 10:01:47 ,1568260000000000.0,1623792,903.6755,0.8421056999999998,6085,5078,5020,0.48857559999999994,0.08738407,-0.8714046,-0.18224649999999998,-0.0370175,0.2508222,-0.003259962,-0.0022513620000000002,-0.0019496670000000002,0,0,0.03155639,0.20655189999999998,-7.0383418,106.9209910,1016590,92523,2030,-1374,-6,-171.3769,5.388509,0.0,1612,1660,1684,1407,1482,1471,0,0,0,0,0,0,0,0,0,0,14.510179999999998,24.34668,0.0312804,308,74,23,44.69,4.96,7.48,-865.9224,297.2808,47,47
78295,9/12/2019, 10:01:47 ,1568260000000000.0,1624130,903.6433,0.9599385,6084,5086,4976,0.45776300000000003,0.07451014,-0.8013734,-0.10776600000000001,0.06019466,0.1973449,-0.003263797,-0.002254183,-0.0019402339999999999,0,0,0.02840444,0.2028066,-7.0382821,106.9209530,1016590,92521,2112,-1285,-14,-171.0849,5.400183999999999,0.0,1618,1663,1684,1405,1485,1476,0,0,0,0,0,0,0,0,0,0,13.940129999999998,24.63555,-2.063792,312,73,23,44.71,5.09,7.48,-872.6969,296.4276,47,47
78308,9/12/2019, 10:01:47 ,1568260000000000.0,1624430,903.6327,1.124845,6083,5075,4908,0.4594718,0.05838235,-0.7216092,-0.01863629,0.1869558,0.20809139999999998,-0.003257985,-0.0022474129999999998,-0.001929295,0,0,0.02735457,0.1986464,-7.0382277,106.9209220,1016640,92578,2187,-1192,-32,-170.8483,5.413309,0.0,1618,1670,1692,1405,1484,1475,0,0,0,0,0,0,0,0,0,0,14.249970000000001,24.84616,0.7561243000000001,316,73,23,44.77,5.23,7.45,-888.0556,294.9953,48,48
78321,9/12/2019, 10:01:48 ,1568260000000000.0,1624730,903.6519,1.01548,6082,5033,4966,0.4626731,0.08146156,-0.6577309,-0.01717078,0.2839243,0.15535970000000002,-0.0032524679999999997,-0.002243426,-0.0019178420000000001,0,0,0.03557308,0.1919184,-7.0381758,106.9208956,1016760,92691,2256,-1096,-59,-170.6506,5.420417,0.0,1617,1658,1692,1405,1484,1475,0,0,0,0,0,0,0,0,0,0,14.46974,25.0416,0.5605464,320,74,23,44.71,5.28,7.34,-922.1105,293.3053,50,50
78339,9/12/2019, 10:01:48 ,1568260000000000.0,1625051,903.6298,1.213502,6080,5070,5012,0.5116609000000001,0.09839325,-0.5919861999999999,0.2570308,0.16054200000000002,0.15522220000000003,-0.003274955,-0.002256785,-0.001922862,0,0,0.03326958,0.17660320000000002,-7.0381185,106.9208699,1016960,92892,2318,-991,-83,-170.4057,5.432508,0.0,1605,1653,1692,1409,1478,1466,0,0,0,0,0,0,0,0,0,0,14.876710000000001,25.21057,1.421978,325,74,23,44.58,5.19,6.95,-944.8883,289.9828,52,52
78352,9/12/2019, 10:01:48 ,1568260000000000.0,1625390,903.5779,1.185268,6078,5075,5020,0.5614769000000001,0.108597,-0.5275276999999999,0.2070717,0.12115539999999998,0.15869460000000002,-0.0032660890000000002,-0.00224984,-0.0019136239999999998,0,0,0.03245823,0.156986,-7.0380610,106.9208474,1017230,93165,2371,-872,-110,-170.2076,5.444426999999999,0.0,1596,1652,1700,1411,1473,1459,0,0,0,0,0,0,0,0,0,0,14.97446,25.28445,-1.2843120000000001,329,75,23,44.55,5.01,6.75,-945.8739999999999,288.4274,52,52
78367,9/12/2019, 10:01:49 ,1568260000000000.0,1625713,903.5089,0.8997751,6076,5078,5003,0.5854401,0.1205024,-0.4494916,0.05018027,0.16507650000000001,0.21853270000000002,-0.003257296,-0.002245268,-0.00190211,0,0,0.03009735,0.1311121,-7.0379387,106.9208113,1017630,93565,2476,-612,-66,-170.0045,5.451757,0.0,1591,1647,1708,1413,1470,1454,0,0,0,0,0,0,0,0,0,0,15.273710000000001,25.4029,0.8433343000000001,334,76,23,44.5,4.91,6.52,-943.4538,285.8549,53,53
78380,9/12/2019, 10:01:49 ,1568260000000000.0,1626014,903.4923,1.0683,6075,5061,4969,0.6220348000000001,0.11170219999999999,-0.3754874,0.04175474,0.009983907,0.1905965,-0.0032433009999999996,-0.002237489,-0.0018875729999999998,0,0,0.03013595,0.1019216,-7.0378750,106.9207985,1017770,93708,2529,-462,-59,-169.7784,5.4589419999999995,0.0,1583,1658,1708,1415,1466,1448,0,0,0,0,0,0,0,0,0,0,14.268279999999999,25.607570000000003,3.1465259999999997,338,76,23,44.54,4.91,6.42,-944.4773,283.9283,54,54
78397,9/12/2019, 10:01:49 ,1568260000000000.0,1626332,903.5188,1.0120639999999999,6074,4916,5010,0.6135916,0.09802645,-0.31736929999999997,-0.008245068000000001,0.14829170000000003,0.1876251,-0.00323963,-0.002237191,-0.0018775229999999999,0,0,0.03384649,0.07123902,-7.0378058,106.9207887,1017850,93788,2570,-330,-12,-169.5682,5.462733999999999,0.0,1588,1662,1708,1414,1468,1452,0,0,0,0,0,0,0,0,0,0,14.316510000000001,25.817079999999997,1.018651,342,76,23,44.63,4.97,6.22,-965.1754,278.4945,56,56
78412,9/12/2019, 10:01:50 ,1568260000000000.0,1626690,903.5554,0.9447235,6071,5064,4923,0.5791489000000001,0.09286868,-0.23313330000000002,-0.2119001,0.15387889999999999,0.2221375,-0.003230498,-0.0022330329999999997,-0.0018641489999999998,0,0,0.0308403,0.04824964,-7.0377450,106.9207831,1017840,93776,2597,-207,1,-169.2968,5.470096,0.0,1595,1665,1708,1412,1472,1458,0,0,0,0,0,0,0,0,0,0,14.910020000000001,26.023770000000003,1.1534790000000001,347,76,22,44.66,5.2,6.23,-980.9568,274.8903,57,57
78425,9/12/2019, 10:01:50 ,1568260000000000.0,1626990,903.5671,1.06461,6070,5067,5022,0.5828768,0.07842111,-0.1388853,-0.05150028,0.10063380000000001,0.2687268,-0.003223311,-0.002229736,-0.0018560679999999998,0,0,0.03319622,0.03073136,-7.0376785,106.9207804,1017820,93756,2620,-60,5,-169.1107,5.475814,0.0,1600,1668,1716,1410,1475,1461,0,0,0,0,0,0,0,0,0,0,14.699670000000001,26.18366,-2.0585869999999997,352,77,22,44.7,5.46,6.25,-998.3436,270.98,58,58
78440,9/12/2019, 10:01:50 ,1568260000000000.0,1627330,903.5947,0.9473425,6069,5028,4993,0.5692305999999999,0.0830686,0.01932365,-0.08062299,0.15336029999999998,0.22838119999999998,-0.003216982,-0.002227348,-0.001846934,0,0,0.03532088,0.03686094,-7.0376068,106.9207819,1017770,93704,2634,113,-11,-168.9535,5.475807,0.0,1599,1666,1716,1411,1474,1461,0,0,0,0,0,0,0,0,0,0,14.522079999999999,26.347140000000003,-0.6769966,357,76,22,44.68,5.66,6.29,-1010.304,268.1998,59,59
78453,9/12/2019, 10:01:51 ,1568260000000000.0,1627590,903.5325,1.0190290000000002,6068,5033,5005,0.5816872,0.10309510000000001,0.09756841,0.1086578,0.1658628,0.14199720000000002,-0.0032090440000000003,-0.00222379,-0.001838776,0,0,0.03431197,0.05679902,-7.0375355,106.9207882,1017760,93693,2635,268,-6,-168.8042,5.479274,0.0,1599,1663,1724,1411,1474,1461,0,0,0,0,0,0,0,0,0,0,14.279910000000001,26.49186,-0.5833851999999999,2,77,22,44.67,5.92,6.31,-1001.43,263.7713,60,60
78472,9/12/2019, 10:01:51 ,1568260000000000.0,1627972,903.5329,1.0967879999999999,6065,5049,4962,0.6414576,0.1109701,0.1660369,0.08661619999999999,0.12451110000000001,0.1530497,-0.0032023459999999996,-0.002221589,-0.00182673,0,0,0.03759687,0.09025552,-7.0374070,106.9208105,1017690,93620,2583,592,-25,-168.602,5.478761,0.0,1586,1668,1716,1415,1467,1450,0,0,0,0,0,0,0,0,0,0,14.63429,26.52876,-0.2938105,7,76,22,44.55,6.47,6.39,-1024.856,255.7095,62,62
78485,9/12/2019, 10:01:51 ,1568260000000000.0,1628269,903.4655,1.225344,6064,5049,4991,0.6373946999999999,0.116145,0.2304444,-0.01347256,0.09956324,0.1463692,-0.003197189,-0.0022199389999999998,-0.0018186370000000001,0,0,0.04023041,0.12047709999999999,-7.0373420,106.9208287,1017760,93696,2530,774,-53,-168.4389,5.474851,0.0,1588,1666,1716,1414,1468,1452,0,0,0,0,0,0,0,0,0,0,14.650360000000001,26.493009999999998,0.9152529,10,77,22,44.52,6.69,6.35,-1027.281,250.4483,63,63
78498,9/12/2019, 10:01:52 ,1568260000000000.0,1628551,903.4324,1.249321,6063,5053,5032,0.5725906999999999,0.1170173,0.2906111,0.05616105,0.18557379999999998,0.2600257,-0.003198421,-0.002222547,-0.001811017,0,0,0.04481127,0.1449964,-7.0372834,106.9208490,1017890,93827,2487,895,-55,-168.2675,5.467617,0.0,1604,1664,1716,1409,1477,1464,0,0,0,0,0,0,0,0,0,0,14.90055,26.459090000000003,2.051266,14,77,22,44.53,6.72,6.26,-1034.66,246.8219,64,64
78516,9/12/2019, 10:01:52 ,1568260000000000.0,1628915,903.475,1.4870889999999999,6061,5038,4983,0.5373412,0.1053353,0.3866598,-0.07320441,0.15243520000000002,0.24164120000000003,-0.003190762,-0.00221931,-0.0018014670000000002,0,0,0.0408015,0.1637339,-7.0372168,106.9208761,1018160,94092,2411,1044,-98,-168.0856,5.463292,0.0,1611,1662,1700,1407,1481,1470,0,0,0,0,0,0,0,0,0,0,15.0292,26.362890000000004,-1.2879200000000002,19,75,22,44.59,6.59,5.87,-1043.938,237.2121,66,66
78529,9/12/2019, 10:01:52 ,1568260000000000.0,1629215,903.4393,1.510792,6060,5085,4964,0.4786265,0.10356040000000001,0.4906554,-0.3403312,0.26596420000000004,0.32538870000000003,-0.003196073,-0.002224346,-0.001802999,0,0,0.04078847,0.18418199999999998,-7.0371606,106.9209025,1018410,94348,2351,1132,-95,-167.94,5.461380999999999,0.0,1621,1661,1692,1404,1486,1478,0,0,0,0,0,0,0,0,0,0,16.428810000000002,26.156,1.515366,25,74,22,43.31,6.41,5.58,-1042.288,231.2259,67,67
78542,9/12/2019, 10:01:53 ,1568260000000000.0,1629529,903.3845,1.2723520000000001,6059,5096,4991,0.5186144,0.08073925,0.5698287,0.2626108,-0.06574836,0.2358654,-0.003191245,-0.002221191,-0.001800948,0,0,0.04196073,0.2024008,-7.0370990,106.9209353,1018800,94738,2241,1262,-175,-167.8536,5.46148,0.0,1614,1661,1676,1406,1482,1472,0,0,0,0,0,0,0,0,0,0,16.488139999999998,25.82164,1.749797,31,72,23,41.93,6.17,5.3,-1037.178,227.2179,67,67
78557,9/12/2019, 10:01:53 ,1568260000000000.0,1629850,903.3768,1.423058,6057,5030,4986,0.617826,0.07843304,0.6391208,0.22738150000000001,0.28898240000000003,0.1636562,-0.003184938,-0.00221845,-0.001803382,0,0,0.04434645,0.23887020000000003,-7.0370437,106.9209698,1019290,95225,2137,1383,-165,-167.75400000000002,5.465224,0.0,1567,1664,1684,1420,1457,1435,0,0,0,0,0,0,0,0,0,0,15.7594,25.476760000000002,-0.047329500000000004,35,72,23,39.71,5.64,4.78,-1011.673,221.0067,68,68
78571,9/12/2019, 10:01:53 ,1568260000000000.0,1630130,903.2819999999999,1.2950780000000002,6055,5056,5000,0.6546408,0.1133117,0.7045299,0.02210128,0.21365389999999998,0.06632285,-0.003182963,-0.002218158,-0.001803203,0,0,0.04943834,0.26415690000000003,-7.0369952,106.9210047,1019680,95619,2020,1502,-159,-167.6867,5.465376999999999,0.0,1559,1655,1676,1423,1452,1429,0,0,0,0,0,0,0,0,0,0,16.01551,24.851020000000002,2.9443029999999997,42,72,23,37.7,5.34,4.47,-1006.8539999999999,216.7538,69,69
78589,9/12/2019, 10:01:53 ,1568260000000000.0,1630450,903.2789,1.188672,6054,5053,5010,0.6210241,0.12734700000000002,0.7527109000000001,-0.25199920000000003,0.1505641,0.15328640000000002,-0.003177668,-0.002216391,-0.0017989120000000002,0,0,0.05336505,0.2741317,-7.0369035,106.9210856,1020470,96406,1764,1694,-138,-167.5312,5.453365,0.0,1564,1644,1644,1421,1455,1433,0,0,0,0,0,0,0,0,0,0,16.48555,24.43287,1.225152,45,67,23,32.45,4.63,3.74,-976.5219,205.8017,70,70
78603,9/12/2019, 10:01:54 ,1568260000000000.0,1630752,903.2589999999999,1.159646,6052,5062,5008,0.5542001,0.1224251,0.8075207,-0.28250290000000006,0.1273278,0.2178095,-0.003172372,-0.002214036,-0.0017930420000000001,0,0,0.05140777,0.27977540000000006,-7.0368637,106.9211269,1020800,96734,1662,1745,-122,-167.4085,5.437266,0.0,1575,1647,1620,1418,1461,1442,0,0,0,0,0,0,0,0,0,0,16.12741,24.03289,1.357162,49,64,23,29.86,4.23,3.34,-949.5907,199.1342,71,71
78618,9/12/2019, 10:01:54 ,1568260000000000.0,1631071,903.1722,1.2143760000000001,6051,5053,4986,0.4305375,0.06753015,0.9449586,-0.294304,-0.01313821,0.21083870000000002,-0.003165545,-0.0022109210000000002,-0.001789915,0,0,0.05158485,0.2871017,-7.0368255,106.9211696,1021030,96965,1577,1784,-71,-167.2744,5.4212050000000005,0.0,1573,1651,1604,1418,1460,1440,0,0,0,0,0,0,0,0,0,0,15.50169,23.631729999999997,-0.1591582,54,62,23,28.67,4.01,3.13,-929.3633,194.695,71,71
78635,9/12/2019, 10:01:54 ,1568260000000000.0,1631415,903.2191,1.152261,6050,5101,4988,0.4524465999999999,0.0428847,1.004918,0.2895257,0.06514391,0.22771220000000003,-0.0031780999999999997,-0.002221238,-0.001801114,0,0,0.04656706,0.2980592,-7.0367844,106.9212194,1021220,97151,1473,1826,-50,-167.1539,5.408407,0.0,1566,1663,1588,1421,1456,1434,0,0,0,0,0,0,0,0,0,0,15.058639999999999,23.2751,0.6144122,58,62,23,24.88,3.75,2.82,-934.9253,183.5956,72,72
78649,9/12/2019, 10:01:55 ,1568260000000000.0,1631752,903.1538,1.112101,6047,5069,4981,0.43495079999999997,0.04444491,1.060443,-0.2463308,0.08975116,0.14645999999999998,-0.003179719,-0.002222891,-0.001800753,0,0,0.04706741,0.3178208,-7.0367496,106.9212658,1021290,97229,1364,1871,-35,-167.0627,5.38736,0.0,1556,1666,1596,1423,1451,1427,0,0,0,0,0,0,0,0,0,0,14.57799,22.92095,0.9531736999999999,61,61,23,22.02,3.76,2.76,-908.6115,177.1091,73,73
78663,9/12/2019, 10:01:55 ,1568260000000000.0,1632071,903.1425,1.008356,6047,5078,5000,0.3593102,0.05192764,1.110317,-0.39220479999999996,0.044944300000000006,0.1675816,-0.0031770120000000003,-0.002222323,-0.001802959,0,0,0.0400898,0.3262955,-7.0366886,106.9213599,1021350,97288,1179,1924,-27,-166.9575,5.367573999999999,0.0,1555,1659,1588,1424,1450,1425,0,0,0,0,0,0,0,0,0,0,14.35896,22.57895,0.6021104,64,60,23,20.21,3.82,2.74,-901.4175,170.4584,73,73
78682,9/12/2019, 10:01:55 ,1568260000000000.0,1632470,903.1609,0.994693,6044,5064,4998,0.2969389,0.04731671,1.1591,-0.13829029999999998,0.05709925,0.2045406,-0.0031675970000000003,-0.002216112,-0.001799029,0,0,0.042484,0.3316841,-7.0366602,106.9214095,1021410,97342,1108,1933,-22,-166.8568,5.337056,0.0,1560,1656,1580,1422,1453,1429,0,0,0,0,0,0,0,0,0,0,14.1118,22.25733,-0.2403632,67,60,23,16.79,3.9,2.67,-871.7760000000001,161.6736,74,74
78695,9/12/2019, 10:01:56 ,1568260000000000.0,1632790,903.1442,0.8920851999999999,6043,5088,5008,0.32983909999999994,0.04385927,1.223976,0.09249373,0.016291899999999998,0.2061218,-0.0031673990000000004,-0.002215838,-0.001800519,0,0,0.03761517,0.3369271,-7.0366337,106.9214594,1021460,97393,1024,1946,-32,-166.7771,5.317154,0.0,1528,1665,1588,1432,1435,1404,0,0,0,0,0,0,0,0,0,0,13.67501,21.96412,0.08227124,71,61,23,14.51,3.92,2.61,-851.4233,155.1472,74,74
78708,9/12/2019, 10:01:56 ,1568260000000000.0,1633051,903.2068,0.8135116,6042,5078,4986,0.39188379999999995,0.03253755,1.283695,0.05551272,0.02609412,0.1977628,-0.003163748,-0.002213777,-0.001803723,0,0,0.04296121,0.3452928,-7.0366083,106.9215129,1021600,97538,906,1971,-70,-166.727,5.300878,0.0,1525,1669,1588,1433,1434,1402,0,0,0,0,0,0,0,0,0,0,12.85777,21.65116,-0.6606379,74,61,23,11.16,3.82,2.47,-838.6799,148.6968,74,74
78722,9/12/2019, 10:01:56 ,1568260000000000.0,1633413,903.1928,0.7740218000000001,6040,5064,5017,0.3422955,0.03802434,1.343557,-0.38207859999999993,0.197719,0.1551223,-0.003159656,-0.00221143,-0.001806119,0,0,0.0373344,0.35117309999999996,-7.0365856,106.9215671,1021680,97615,829,1985,-21,-166.6597,5.283816000000001,0.0,1529,1657,1580,1432,1436,1405,0,0,0,0,0,0,0,0,0,0,12.36197,21.41914,0.9672608,78,60,23,9.77,3.77,2.39,-832.0646,144.3876,74,74
78739,9/12/2019, 10:01:57 ,1568260000000000.0,1633750,903.1445,0.6043651999999999,6039,5043,5000,0.2278214,0.04090236,1.395322,-0.4486012,-0.01769534,0.1303843,-0.003164589,-0.0022139779999999997,-0.0018122070000000001,0,0,0.04061171,0.3581807,-7.0365665,106.9216181,1021720,97655,748,1991,-36,-166.6296,5.267556,0.0,1551,1658,1572,1425,1448,1422,0,0,0,0,0,0,0,0,0,0,11.74346,21.21272,-0.3961563,80,59,23,5.62,3.86,2.3,-805.2742,131.6513,75,75
78753,9/12/2019, 10:01:57 ,1568260000000000.0,1634031,903.1667,0.5946600999999999,6038,5077,4991,0.1383078,0.02852075,1.4202569999999999,0.1888447,-0.03424256,0.1134279,-0.003157965,-0.00220876,-0.001812228,0,0,0.03304077,0.36179920000000004,-7.0365346,106.9217122,1021890,97820,665,1993,-53,-166.5955,5.250163,0.0,1544,1666,1572,1427,1444,1417,0,0,0,0,0,0,0,0,0,0,11.28988,21.04789,0.5497550999999999,81,59,23,4.82,3.82,2.22,-797.8426,127.4407,75,75
78767,9/12/2019, 10:01:57 ,1568260000000000.0,1634350,903.1287,0.6691314,6036,5014,4998,0.2012592,0.02399914,1.437984,0.1990463,0.02802984,0.04005274,-0.0031542370000000003,-0.00220531,-0.0018113029999999998,0,0,0.02907632,0.3602508,-7.0365201,106.9217595,1021990,97926,619,1994,-56,-166.5822,5.2304,0.0,1524,1663,1572,1433,1433,1401,0,0,0,0,0,0,0,0,0,0,11.0777,20.91544,0.4295985,82,59,23,3.81,3.77,2.14,-795.2227,123.1883,75,75
78782,9/12/2019, 10:01:58 ,1568260000000000.0,1634672,903.0515,0.624922,6035,5062,4988,0.05158342,0.02393606,1.453973,-0.35879859999999997,-0.09260832,0.06340244,-0.003156102,-0.002205206,-0.0018147460000000001,0,0,0.03055538,0.3514116,-7.0365065,106.9218065,1022120,98051,584,1990,-85,-166.5663,5.210111,0.0,1542,1657,1572,1428,1443,1416,0,0,0,0,0,0,0,0,0,0,11.27914,20.74537,1.126298,83,58,23,2.34,3.7,2.02,-787.5231,116.9282,75,75
78799,9/12/2019, 10:01:58 ,1568260000000000.0,1634990,903.0687,0.5846754,6033,5070,5003,-0.02197281,0.01957553,1.4877479999999998,0.03435218,-0.02519726,0.10845539999999998,-0.00315213,-0.002200246,-0.0018142310000000001,0,0,0.02694786,0.3465689,-7.0364913,106.9218605,1022390,98328,587,1981,-97,-166.5581,5.188971,0.0,1571,1662,1564,1419,1459,1438,0,0,0,0,0,0,0,0,0,0,11.24488,20.66635,1.181922,84,57,23,2.24,3.24,1.6,-771.3598,106.5773,75,75
78813,9/12/2019, 10:01:58 ,1568260000000000.0,1635330,903.067,0.4966022,6031,4980,4998,0.07708615,0.027560700000000004,1.518684,0.4928112,0.04970592,0.08536666,-0.003152644,-0.002198271,-0.001817627,0,0,0.02681843,0.3419526,-7.0364756,106.9219141,1022660,98597,593,1971,-82,-166.547,5.175781,0.0,1577,1661,1548,1417,1462,1443,0,0,0,0,0,0,0,0,0,0,11.0806,20.57925,1.227424,86,56,23,2.6,3.04,1.42,-759.2024,102.4555,75,75
78826,9/12/2019, 10:01:59 ,1568260000000000.0,1635591,903.0317,0.48633770000000004,6030,5083,4998,0.1789848,0.04939773,1.5274969999999999,0.2391346,0.09705855,-0.03635095,-0.0031574259999999996,-0.002200251,-0.0018248939999999999,0,0,0.03055612,0.334023,-7.0364622,106.9219604,1022850,98787,576,1963,-58,-166.5284,5.168344,0.0,1537,1652,1540,1429,1440,1412,0,0,0,0,0,0,0,0,0,0,10.706389999999999,20.38101,-1.040537,87,55,23,2.07,2.8,1.21,-748.5941,96.34680999999999,75,75
78839,9/12/2019, 10:01:59 ,1568260000000000.0,1635913,902.9932,0.5426949999999999,6029,5083,4993,0.18249229999999997,0.04584668,1.5104,-0.4197102,-0.1024822,-0.07286133,-0.0031651440000000004,-0.002204007,-0.001832477,0,0,0.03215114,0.32317229999999997,-7.0364497,106.9220058,1022930,98868,531,1951,-33,-166.5125,5.160101,0.0,1521,1644,1540,1434,1431,1399,0,0,0,0,0,0,0,0,0,0,10.509039999999999,20.12425,1.6589880000000001,87,55,23,0.53,2.74,1.12,-740.7239999999999,90.31434,75,75
78853,9/12/2019, 10:01:59 ,1568260000000000.0,1636213,902.9558,0.5594376,6028,5074,4988,0.10533920000000001,0.01798348,1.498828,-0.3122012,-0.04105443,0.001182881,-0.003159827,-0.00219761,-0.001831376,0,0,0.03276883,0.3142324,-7.0364375,106.9220547,1023060,98992,484,1935,-69,-166.5162,5.142645,0.0,1533,1658,1532,1430,1438,1408,0,0,0,0,0,0,0,0,0,0,10.46088,19.86596,0.5757014,85,54,23,-0.49,2.63,1.03,-731.6744,86.36025,75,75
78872,9/12/2019, 10:02:00 ,1568260000000000.0,1636530,902.9343,0.6533571,6026,5086,4969,0.04545857,0.033481699999999996,1.509677,0.1088066,0.01640086,0.08888934,-0.0031508879999999997,-0.002188739,-0.00182642,0,0,0.02938097,0.3050531,-7.0364135,106.9221559,1023180,99118,459,1905,-14,-166.5333,5.119205,0.0,1527,1657,1532,1432,1435,1403,0,0,0,0,0,0,0,0,0,0,11.610560000000001,19.68565,1.2554290000000001,86,54,23,-2.83,2.52,0.9,-689.3694,76.43455,75,75
78885,9/12/2019, 10:02:00 ,1568260000000000.0,1636831,902.9621,0.5906965999999999,6025,5070,4957,0.05733953,0.01741234,1.524974,-0.20731220000000003,-0.01516743,0.04439157,-0.00314708,-0.002183556,-0.001824889,0,0,0.02823899,0.2977788,-7.0364014,106.9222074,1023240,99170,449,1893,-3,-166.55,5.0961419999999995,0.0,1513,1663,1532,1436,1427,1393,0,0,0,0,0,0,0,0,0,0,11.36094,19.52754,0.4182175,87,54,23,-6.98,2.48,0.85,-679.8073,70.55381,75,75
78898,9/12/2019, 10:02:00 ,1568260000000000.0,1637114,902.9445,0.6088720999999999,6024,5080,4940,0.04776116,0.01727597,1.546751,-0.02879159,0.05502439,0.07466217,-0.003152865,-0.002185692,-0.0018285089999999999,0,0,0.02306066,0.2943978,-7.0363920,106.9222483,1023210,99145,441,1886,18,-166.5672,5.077152,0.0,1498,1659,1532,1440,1418,1381,0,0,0,0,0,0,0,0,0,0,11.10464,19.39021,-0.2680276,88,54,23,-9.73,2.48,0.84,-668.053,66.67274,75,75
78911,9/12/2019, 10:02:00 ,1568260000000000.0,1637391,902.9409,0.5959768,6023,5066,4988,0.02243233,0.02545434,1.5648540000000002,-0.09884141,0.005140973,0.07026636,-0.003148638,-0.00218126,-0.001827165,0,0,0.01873417,0.2875587,-7.0363812,106.9222958,1023180,99118,435,1874,6,-166.5797,5.060768,0.0,1484,1660,1532,1445,1406,1372,0,0,0,0,0,0,0,0,0,0,10.67164,19.26856,-0.5068564,89,54,23,-13.72,2.57,0.88,-657.9966,60.9266,75,75
78924,9/12/2019, 10:02:01 ,1568260000000000.0,1637669,903.0191,0.5171784,6022,5070,4974,0.03432368,0.01190444,1.589661,-0.1252663,-0.02609043,0.0747707,-0.003145181,-0.002176932,-0.0018265529999999999,0,0,0.02090142,0.279589,-7.0363713,106.9223399,1023180,99116,423,1870,10,-166.5875,5.049123000000001,0.0,1469,1666,1532,1450,1394,1364,0,0,0,0,0,0,0,0,0,0,10.12464,19.19524,-0.7520498000000001,90,54,23,-16.38,2.6,0.88,-652.7794,57.0648,75,75
78938,9/12/2019, 10:02:01 ,1568260000000000.0,1637974,903.0023,0.2958668,6019,5093,4979,-0.009856679,0.007515939,1.61524,0.000748455,-0.06509489,0.137649,-0.003157355,-0.0021835820000000003,-0.0018367070000000001,0,0,0.01884128,0.2716901,-7.0363611,106.9223868,1023180,99119,417,1869,-12,-166.5884,5.041415,0.0,1454,1670,1532,1456,1381,1354,0,0,0,0,0,0,0,0,0,0,9.662887,19.154429999999998,1.088114,92,54,23,-20.29,2.65,0.9,-645.2213,51.30612,75,75
78955,9/12/2019, 10:02:01 ,1568260000000000.0,1638313,902.957,0.2748773,6019,5096,4979,-0.05491825,0.007162014,1.6520439999999998,-0.09631407,-0.02057647,0.14338599999999999,-0.003158544,-0.002183559,-0.001841056,0,0,0.01937684,0.26638249999999997,-7.0363509,106.9224334,1023210,99146,418,1874,-25,-166.5825,5.039744000000001,0.0,1447,1669,1532,1458,1375,1350,0,0,0,0,0,0,0,0,0,0,8.455616000000001,19.18991,-1.021519,94,54,23,-26.76,2.63,0.84,-585.9258,41.88322,75,75
78968,9/12/2019, 10:02:02 ,1568260000000000.0,1638590,902.9680000000001,0.3726633,6017,5085,5000,-0.1027942,0.01501462,1.6911349999999998,-0.06289526,0.04010105,0.153534,-0.003156553,-0.002180461,-0.00184521,0,0,0.02015516,0.2618643,-7.0363398,106.9224845,1023310,99245,429,1877,-45,-166.5622,5.047993,0.0,1436,1665,1532,1462,1365,1343,0,0,0,0,0,0,0,0,0,0,8.106622999999999,19.251620000000003,1.0684930000000001,96,54,23,-30.45,2.52,0.74,-583.4536,36.1422,74,74
78981,9/12/2019, 10:02:02 ,1568260000000000.0,1638852,903.0425,0.3976874,6017,5057,5005,-0.1293158,0.03550323,1.721471,0.01851118,-0.05507294,0.12374760000000001,-0.0031553490000000004,-0.002179285,-0.001851095,0,0,0.01763361,0.2564573,-7.0363290,106.9225321,1023490,99420,446,1878,-112,-166.5345,5.0641099999999994,0.0,1428,1658,1532,1465,1359,1339,0,0,0,0,0,0,0,0,0,0,8.668491,19.31123,-0.7207994000000001,98,54,23,-32.79,2.37,0.6,-588.0514,32.26804,74,74
78994,9/12/2019, 10:02:02 ,1568260000000000.0,1639130,902.9368,0.43728240000000007,6015,5095,4940,-0.13891900000000001,0.04815092,1.7358060000000002,0.027771800000000003,0.146536,0.03507195,-0.0031515159999999996,-0.0021753560000000003,-0.001854354,0,0,0.02146945,0.2574268,-7.0363188,106.9225763,1023690,99628,450,1876,-58,-166.5134,5.078298,0.0,1412,1634,1524,1471,1345,1329,0,0,0,0,0,0,0,0,0,0,9.038329,19.300629999999998,1.062804,99,53,23,-34.86,2.14,0.37,-584.8882,26.4969,74,74
79008,9/12/2019, 10:02:02 ,1568260000000000.0,1639451,902.9262,0.1893969,6013,5095,5017,-0.1360035,0.07063664,1.7220330000000001,0.2620206,-0.08223802,-0.04697177,-0.003149907,-0.002173529,-0.001863369,0,0,0.02169253,0.2517563,-7.0363069,106.9226266,1023840,99774,459,1867,-35,-166.4643,5.112621,0.0,1377,1631,1516,1483,1315,1308,0,0,0,0,0,0,0,0,0,0,7.571173,19.26168,1.510725,98,52,23,-37.74,1.94,0.27,-469.755,22.69492,74,74
79021,9/12/2019, 10:02:03 ,1568260000000000.0,1639751,902.9348,0.41312380000000004,6012,5078,4983,-0.18515220000000002,0.04648795,1.688539,-0.2413455,-0.1718729,-0.1226548,-0.003147145,-0.002170795,-0.001868574,0,0,0.02505152,0.244991,-7.0362953,106.9226739,1023960,99895,477,1856,-51,-166.4382,5.134701000000001,0.0,1384,1653,1516,1480,1321,1312,0,0,0,0,0,0,0,0,0,0,8.003066,19.16318,-0.8120892,96,52,23,-40.38,1.78,0.14,-469.6489,16.941689999999998,74,74
79038,9/12/2019, 10:02:03 ,1568260000000000.0,1640071,902.905,0.3424748,6011,5085,4974,-0.2861573,0.02903301,1.6584279999999998,-0.46366999999999997,0.005850194,-0.10901789999999999,-0.0031632640000000003,-0.002179099,-0.0018833489999999999,0,0,0.02468303,0.24375210000000003,-7.0362809,106.9227276,1024100,100036,530,1851,-49,-166.4186,5.153792,0.0,1406,1660,1516,1473,1340,1325,0,0,0,0,0,0,0,0,0,0,8.770116999999999,19.26099,1.932046,94,52,23,-44.75,1.48,-0.08,-442.5974,7.366119,74,74
79052,9/12/2019, 10:02:03 ,1568260000000000.0,1640373,902.8372,0.356298,6009,5086,4974,-0.3229761,0.04055581,1.627915,0.009030612,0.08052856,-0.07882701,-0.003161166,-0.002175339,-0.001887368,0,0,0.018934799999999998,0.2463981,-7.0362682,106.9227699,1024190,100122,580,1844,-28,-166.4097,5.171589,0.0,1385,1647,1516,1480,1322,1313,0,0,0,0,0,0,0,0,0,0,8.973152,19.34366,1.146795,93,52,23,-44.91,1.39,-0.14,-440.4839,1.643288,74,74
79065,9/12/2019, 10:02:04 ,1568260000000000.0,1640671,902.8694,0.31060709999999997,6008,5064,4974,-0.2984845,0.06858386,1.586976,-0.15703789999999998,0.07123102,-0.15400329999999998,-0.0031542370000000003,-0.002169695,-0.0018889820000000002,0,0,0.01864703,0.23618089999999997,-7.0362539,106.9228134,1024190,100126,619,1832,22,-166.4155,5.189679,0.0,1384,1635,1508,1480,1321,1312,0,0,0,0,0,0,0,0,0,0,8.990022,19.3479,-0.01555923,90,51,23,-44.9,1.45,-0.09999999,-442.4225,-2.236748,74,74
79079,9/12/2019, 10:02:04 ,1568260000000000.0,1641015,902.9147,0.2527761,6007,5095,5012,-0.3991407,0.05126987,1.537045,-0.7097485,0.01094839,-0.18833060000000001,-0.0031531009999999997,-0.002165602,-0.001893873,0,0,0.02159836,0.22607129999999998,-7.0362189,106.9229058,1024010,99942,767,1808,70,-166.4291,5.206233999999999,0.0,1439,1674,1524,1461,1369,1346,0,0,0,0,0,0,0,0,0,0,7.6720880000000005,19.565939999999998,-1.851075,86,53,23,-44.96,1.55,-0.02,-423.7454,-8.061111,75,75
79093,9/12/2019, 10:02:04 ,1568260000000000.0,1641313,902.9432,0.2435696,6005,5088,4983,-0.46373640000000005,0.05150324,1.481191,0.25237350000000003,0.2228725,-0.1339213,-0.003147751,-0.0021620660000000002,-0.0018962570000000002,0,0,0.02052908,0.226867,-7.0361994,106.9229483,1023840,99775,880,1792,38,-166.4585,5.220796,0.0,1412,1657,1532,1470,1346,1329,0,0,0,0,0,0,0,0,0,0,7.156182,19.87235,0.4004076,83,54,23,-44.93,1.69,0.09,-419.4374,-11.93847,75,76
79113,9/12/2019, 10:02:05 ,1568260000000000.0,1641671,902.9382,0.30903559999999997,6003,5091,4937,-0.3542572,0.02357795,1.38192,0.12242570000000001,0.07238145,-0.19478,-0.003147524,-0.002160795,-0.001904469,0,0,0.02701591,0.2153255,-7.0361774,106.9229904,1023830,99768,970,1784,-10,-166.5236,5.241947,0.0,1379,1670,1524,1482,1317,1309,0,0,0,0,0,0,0,0,0,0,7.692102,20.266189999999998,-1.805552,81,54,23,-44.98,1.89,0.23,-431.2071,-21.67973,78,78
79126,9/12/2019, 10:02:05 ,1568260000000000.0,1641991,902.9144,0.2774562,6003,5011,4976,-0.3244534,0.02709154,1.3168360000000001,0.1052818,0.11119100000000001,-0.17308929999999997,-0.0031502329999999997,-0.002161588,-0.001911876,0,0,0.03073766,0.2063672,-7.0361499,106.9230387,1023910,99849,1053,1775,-37,-166.5789,5.254665,0.0,1368,1663,1524,1486,1308,1302,0,0,0,0,0,0,0,0,0,0,7.392011999999999,20.65869,0.36797579999999996,77,53,23,-44.98,1.78,0.15,-453.6114,-27.51115,81,81
79140,9/12/2019, 10:02:05 ,1568260000000000.0,1642330,902.8508,0.2927364,6001,5032,4942,-0.3202645,0.02743207,1.248449,-0.45581130000000003,0.11845850000000001,-0.27194959999999996,-0.003156076,-0.002164008,-0.0019203579999999998,0,0,0.03077935,0.1900104,-7.0361222,106.9230837,1024100,100039,1127,1759,-82,-166.6295,5.26299,0.0,1362,1658,1516,1488,1303,1299,0,0,0,0,0,0,0,0,0,0,7.377333999999999,20.929570000000002,-0.09748031,73,52,23,-44.98,1.6,0.01,-466.4316,-31.30582,83,83
79158,9/12/2019, 10:02:06 ,1568260000000000.0,1642690,902.7972,0.3066848,5999,5074,5005,-0.42591769999999995,0.03873506,1.158636,-0.1697659,0.09841211,-0.2495848,-0.0031548970000000003,-0.002159948,-0.001923141,0,0,0.02842767,0.16429660000000001,-7.0360596,106.9231744,1024550,100483,1268,1693,-51,-166.6709,5.2695419999999995,0.0,1400,1656,1516,1475,1335,1322,0,0,0,0,0,0,0,0,0,0,7.790083,21.07989,2.493476,67,52,23,-41.88,0.96,-0.45,-490.5256,-41.82954,95,95
79172,9/12/2019, 10:02:06 ,1568260000000000.0,1643012,902.7827,0.3307992,5997,5103,4991,-0.4647935,0.04306341,1.090596,-0.24120300000000003,0.1457286,-0.2295837,-0.003160001,-0.002159722,-0.001927871,0,0,0.02153753,0.14129629999999999,-7.0360287,106.9232134,1024690,100624,1355,1642,-36,-166.68599999999998,5.270645,0.0,1448,1657,1508,1458,1376,1351,0,0,0,0,0,0,0,0,0,0,7.784331,21.20225,0.498399,63,51,23,-31.64,0.78,-0.57,-486.8105,-44.74675,102,101
79185,9/12/2019, 10:02:06 ,1568260000000000.0,1643291,902.7527,0.3363394,5996,5057,5017,-0.36969650000000004,0.02479162,1.043209,0.5489393,-0.09449794,-0.1731106,-0.003156131,-0.002156416,-0.001927464,0,0,0.01777277,0.1130856,-7.0359931,106.9232542,1024830,100767,1441,1593,-34,-166.7039,5.271533,0.0,1532,1661,1500,1431,1437,1407,0,0,0,0,0,0,0,0,0,0,7.832752,21.42511,1.406253,60,50,23,-1.44,0.54,-0.72,-483.4476,-48.0713,115,115
79202,9/12/2019, 10:02:07 ,1568260000000000.0,1643632,902.735,0.3737382,5995,5077,5000,-0.15359360000000002,0.003197696,0.9766851999999999,0.9794879000000001,0.05652817,-0.30613559999999995,-0.003157978,-0.0021556929999999998,-0.001931156,0,0,0.02987898,0.08633175,-7.0359561,106.9232941,1024920,100853,1475,1566,-6,-166.7253,5.271869000000001,0.0,1631,1654,1476,1401,1492,1486,0,0,0,0,0,0,0,0,0,0,7.913556,21.50432,0.7573524,57,47,23,37.8,0.27,-0.88,-473.5187,-49.51239,143,143
79216,9/12/2019, 10:02:07 ,1568260000000000.0,1643973,902.7424,0.46765740000000006,5993,5101,4952,0.08426174,-0.0022156660000000002,0.8774208,0.9599268,-0.06143669,-0.25025149999999996,-0.0031533040000000004,-0.00215087,-0.001927018,0,0,0.02931901,0.06235032,-7.0359185,106.9233337,1024970,100907,1474,1561,-11,-166.6458,5.266932,0.0,1661,1653,1468,1392,1508,1510,0,0,0,0,0,0,0,0,0,0,7.705462,21.49568,-0.4929906,50,46,23,42.07,0.19,-0.92,-465.963,-48.53683,154,154
79230,9/12/2019, 10:02:07 ,1568260000000000.0,1644271,902.6937,0.4926085,5993,5095,5000,0.2834022,0.005294556999999999,0.7994298000000001,0.4837443,0.1398723,-0.20786,-0.00316223,-0.002155035,-0.001926134,0,0,0.03719412,0.04460967,-7.0358816,106.9233732,1024990,100924,1447,1574,56,-166.465,5.255219,0.0,1645,1640,1476,1397,1499,1497,0,0,0,0,0,0,0,0,0,0,9.238344999999999,21.36741,0.791752,45,46,23,43.37,0.21,-0.88,-451.2137,-45.79855,169,169
79249,9/12/2019, 10:02:08 ,1568260000000000.0,1644691,902.7244,0.1801405,5990,5091,4966,0.2319551,0.03832447,0.7536647,-0.6072506999999999,-0.1652757,-0.1475288,-0.0031644840000000004,-0.00215395,-0.001912195,0,0,0.04341447,0.02645749,-7.0358105,106.9234531,1024610,100546,1396,1601,105,-166.088,5.226871,0.0,1719,1677,1476,1375,1540,1556,0,0,0,0,0,0,0,0,0,0,8.510792,21.24178,0.05992248,43,47,23,43.08,0.64,-0.53,-323.806,-38.99929,-173,-173
79262,9/12/2019, 10:02:08 ,1568260000000000.0,1645013,902.6884,0.3519059,5989,5049,4991,0.09834377,-0.03230353,0.7575225999999999,-0.11717000000000001,-0.1322179,0.1591432,-0.003156675,-0.002147463,-0.00189551,0,0,0.04704317,0.02040241,-7.0357775,106.9234906,1024350,100280,1410,1591,162,-165.7629,5.201994,0.0,1721,1675,1476,1374,1541,1558,0,0,0,0,0,0,0,0,0,0,8.024261,21.264689999999998,-1.017189,43,47,23,42.9,1.08,-0.2,-329.1318,-34.02525,-167,-167
79277,9/12/2019, 10:02:08 ,1568260000000000.0,1645330,902.8062,0.33589309999999994,5988,5078,4988,0.1401822,-0.02816986,0.9502301,0.7521576999999999,0.1256413,0.3615563,-0.0031546440000000003,-0.002144866,-0.0018872939999999999,0,0,0.04364749,0.01612078,-7.0357392,106.9235337,1024020,99951,1419,1598,107,-165.5349,5.184608,0.0,1706,1687,1492,1378,1533,1546,0,0,0,0,0,0,0,0,0,0,8.471283999999999,21.35153,-0.5505665,49,49,23,42.64,1.37,0.02,-351.8488,-30.48889,-163,-163
79291,9/12/2019, 10:02:09 ,1568260000000000.0,1645671,902.9063,0.3656058,5985,5078,5000,0.27077140000000005,-0.01170579,1.038066,0.7447125,0.08753251,0.2234004,-0.0031476779999999997,-0.002142242,-0.0018829320000000001,0,0,0.03932383,0.03433345,-7.0357013,106.9235776,1023840,99771,1395,1618,75,-165.3812,5.171963,0.0,1697,1680,1508,1381,1528,1538,0,0,0,0,0,0,0,0,0,0,8.623567999999999,21.3767,-2.0706279999999997,56,50,23,43.27,1.64,0.21,-383.5146,-24.94429,-159,-159
79309,9/12/2019, 10:02:09 ,1568260000000000.0,1646016,902.8736,0.42026959999999997,5984,5096,4998,0.37234029999999996,0.02994255,1.095824,0.43780519999999995,0.3150232,0.1357256,-0.003141572,-0.002139868,-0.001883511,0,0,0.04832076,0.05962998,-7.0356351,106.9236620,1023400,99336,1271,1687,149,-165.3154,5.1653709999999995,0.0,1675,1680,1524,1388,1516,1521,0,0,0,0,0,0,0,0,0,0,8.957334,21.29265,-1.8545029999999998,60,53,23,44.79,2.11,0.53,-319.6238,-15.47966,-153,-153
79324,9/12/2019, 10:02:09 ,1568260000000000.0,1646391,902.9613,0.2663215,5982,5041,4981,0.5591286,0.05412055,1.151157,0.3472868,0.06467126,0.08536799,-0.0031393959999999996,-0.002139942,-0.0018831310000000001,0,0,0.06344348,0.08078643,-7.0356055,106.9237059,1023020,98952,1127,1754,132,-165.2403,5.156185,0.0,1617,1680,1540,1405,1484,1475,0,0,0,0,0,0,0,0,0,0,7.513675,20.79826,-1.710927,66,60,23,44.77,2.71,0.95,-318.0464,-9.854755,-150,-150
79342,9/12/2019, 10:02:10 ,1568260000000000.0,1646732,902.9182,0.3482416,5981,5078,5020,0.6150966999999999,0.08559542,1.193674,0.07053173,0.2951989,0.02443596,-0.003150943,-0.002147827,-0.001886211,0,0,0.06984131,0.09376208,-7.0355817,106.9237475,1022650,98580,1002,1806,163,-165.1834,5.1424080000000005,0.0,1600,1676,1612,1411,1475,1461,0,0,0,0,0,0,0,0,0,0,8.120007000000001,20.54959,0.3015388,70,64,23,44.51,3.78,1.66,-301.2939,-0.9210891999999999,-146,-146
79355,9/12/2019, 10:02:10 ,1568260000000000.0,1647031,902.9704,0.20809629999999998,5980,5062,4925,0.5475656999999999,0.1299392,1.252208,-0.5962930999999999,0.14518689999999998,0.06378222,-0.003154239,-0.002151262,-0.0018814220000000002,0,0,0.08030549,0.09479064,-7.0355580,106.9237970,1022220,98159,846,1861,146,-165.1489,5.120616,0.0,1647,1663,1612,1396,1500,1499,0,0,0,0,0,0,0,0,0,0,8.148788,20.348129999999998,-1.6520569999999999,73,64,23,44.52,4.18,1.92,-297.7571,2.5239409999999998,-144,-144
79369,9/12/2019, 10:02:10 ,1568260000000000.0,1647352,903.0285,0.4543986,5978,5064,5012,0.43532609999999994,0.0924857,1.301676,-0.20846350000000002,-0.036796800000000005,0.2940408,-0.003146343,-0.002145316,-0.0018636079999999999,0,0,0.07697754,0.09725381,-7.0355390,106.9238447,1021940,97870,730,1892,109,-165.1636,5.084462,0.0,1675,1682,1612,1388,1516,1521,0,0,0,0,0,0,0,0,0,0,8.813389,20.19124,-0.8875930000000001,78,64,23,44.7,4.65,2.2,-320.0804,7.643471000000001,-142,-142
79389,9/12/2019, 10:02:11 ,1568260000000000.0,1647752,903.0904,0.455,5976,5083,5008,0.4611661,0.06888504,1.524508,0.01811981,0.2862143,0.3504604,-0.003144195,-0.002143773,-0.001855991,0,0,0.06902828,0.1024482,-7.0355092,106.9239384,1021560,97490,530,1919,57,-165.1842,5.057067,0.0,1654,1697,1628,1394,1504,1504,0,0,0,0,0,0,0,0,0,0,9.755438999999999,19.914179999999998,-1.277287,86,66,23,44.72,5.26,2.53,-386.4294,16.04648,-138,-138
79403,9/12/2019, 10:02:11 ,1568260000000000.0,1648090,903.1287,0.6863640999999999,5974,5006,4991,0.5381411,0.08631635,1.66357,0.6274774000000001,0.3399914,0.3404955,-0.003133727,-0.002135441,-0.0018481860000000001,0,0,0.06095621,0.1026262,-7.0354983,106.9239870,1021530,97463,380,1917,-4,-165.2001,5.044767,0.0,1649,1686,1636,1396,1502,1500,0,0,0,0,0,0,0,0,0,0,10.52263,19.548820000000003,0.1930824,92,68,23,44.69,5.35,2.55,-398.5097,19.276120000000002,-136,-136
79417,9/12/2019, 10:02:11 ,1568260000000000.0,1648430,903.0814,0.6703747,5973,5056,4901,0.6783696,0.10702719999999999,1.766246,0.39541570000000004,0.2908958,0.20955279999999998,-0.003128294,-0.002130206,-0.001845488,0,0,0.06777171,0.09662566,-7.0354919,106.9240351,1021640,97573,189,1887,-39,-165.2092,5.035108999999999,0.0,1569,1703,1684,1420,1458,1437,0,0,0,0,0,0,0,0,0,0,11.15715,18.80624,-1.923113,101,72,23,44.57,5.32,2.44,-382.2271,23.82925,-134,-134
79430,9/12/2019, 10:02:12 ,1568260000000000.0,1648671,903.1058,0.4658572,5972,5085,5020,0.7337610999999999,0.15415109999999999,1.866697,-0.03206491,0.34429840000000006,0.09202852,-0.003124942,-0.002127523,-0.0018415329999999998,0,0,0.07290632,0.08167335,-7.0354911,106.9240885,1021820,97757,-69,1826,-62,-165.2471,5.025352,0.0,1562,1684,1700,1422,1454,1431,0,0,0,0,0,0,0,0,0,0,10.42806,18.1595,1.585135,106,75,23,44.36,5.18,2.28,-390.8546,27.957259999999998,-132,-132
79443,9/12/2019, 10:02:12 ,1568260000000000.0,1648971,903.0862,0.6332956,5971,5064,5003,0.745028,0.1857308,1.946781,-0.1603536,0.2728001,0.08805783,-0.003124374,-0.00212605,-0.001836151,0,0,0.07222166,0.06519651,-7.0354960,106.9241275,1022060,97989,-293,1743,-104,-165.3419,5.009648,0.0,1565,1660,1692,1421,1456,1434,0,0,0,0,0,0,0,0,0,0,10.107330000000001,17.531270000000003,-1.073636,111,75,23,44.14,5.0,2.1,-399.5831,30.42813,-131,-131
79461,9/12/2019, 10:02:12 ,1568260000000000.0,1649313,903.0298,0.42914300000000005,5968,5067,5010,0.6941491,0.2022823,2.012362,-0.2919,0.126102,0.136901,-0.003121069,-0.002122062,-0.0018258120000000002,0,0,0.07454918,0.05212077,-7.0355067,106.9241699,1022380,98316,-494,1646,-114,-165.543,4.986743,0.0,1591,1643,1668,1413,1470,1454,0,0,0,0,0,0,0,0,0,0,10.33043,17.04437,2.910874,115,71,23,42.84,4.35,1.52,-440.1955,35.50704,-127,-127
79474,9/12/2019, 10:02:13 ,1568260000000000.0,1649614,902.9289,0.6351328,5967,5083,5003,0.5888691999999999,0.17414129999999997,2.0523569999999998,-0.352892,-0.06645566,0.2174803,-0.0031267870000000002,-0.002124544,-0.0018193839999999998,0,0,0.07525446,0.048683,-7.0355217,106.9242100,1022740,98671,-639,1554,-108,-165.8613,4.95528,0.0,1620,1648,1620,1404,1486,1477,0,0,0,0,0,0,0,0,0,0,10.49263,16.70788,0.637283,118,66,23,42.68,3.94,1.17,-443.1702,38.08166,-124,-124
79488,9/12/2019, 10:02:13 ,1568260000000000.0,1649914,902.8753,0.7065047,5966,5046,5010,0.539265,0.1148356,2.123955,-0.06210375,-0.06057651,0.3476868,-0.0031238679999999997,-0.002121589,-0.001806973,0,0,0.06775873,0.050522500000000005,-7.0355572,106.9242823,1023180,99110,-796,1430,-18,-166.2416,4.922744000000001,0.0,1618,1664,1612,1405,1485,1476,0,0,0,0,0,0,0,0,0,0,11.44153,16.414620000000003,1.170922,123,63,23,42.58,3.74,1.01,-445.3671,39.7242,-123,-123
79502,9/12/2019, 10:02:13 ,1568260000000000.0,1650270,902.9656,0.5280583000000001,5964,5088,4969,0.5390486,0.08173887,2.218628,0.06932176,0.0698773,0.3388802,-0.0031152159999999996,-0.00211371,-0.001794372,0,0,0.069267,0.04953531,-7.0355806,106.9243197,1023230,99167,-893,1344,19,-166.6152,4.893462,0.0,1608,1680,1604,1408,1479,1467,0,0,0,0,0,0,0,0,0,0,10.817,16.17083,-1.436424,129,63,23,42.31,3.54,0.85,-578.0901,42.05135,-121,-121
79519,9/12/2019, 10:02:14 ,1568260000000000.0,1650614,902.8687,0.5120695,5962,5091,5020,0.6137818,0.07321262,2.341757,0.2249969,0.3235168,0.2810591,-0.0031103640000000004,-0.002108117,-0.0017829629999999998,0,0,0.06899491,0.03685367,-7.0356030,106.9243499,1023140,99077,-992,1245,42,-167.0275,4.866003,0.0,1588,1678,1612,1414,1468,1452,0,0,0,0,0,0,0,0,0,0,10.59019,15.885329999999998,1.004434,137,65,23,41.61,3.7,0.95,-592.8022,45.41744,-117,-117
79533,9/12/2019, 10:02:14 ,1568260000000000.0,1650949,903.0466,0.5213617,5960,5057,5000,0.6692004,0.0823705,2.45175,0.2047868,0.21163200000000001,0.2365509,-0.0031140770000000003,-0.002110104,-0.001779129,0,0,0.06825060000000001,0.02313573,-7.0356300,106.9243790,1023030,98961,-1111,1109,61,-167.3207,4.849469999999999,0.0,1571,1688,1636,1419,1459,1439,0,0,0,0,0,0,0,0,0,0,9.98574,15.64316,-1.5015530000000001,143,69,23,41.3,3.84,1.09,-630.628,46.93698,-115,-115
79549,9/12/2019, 10:02:14 ,1568260000000000.0,1651271,902.9878,0.5075942,5959,5061,4991,0.6537713,0.1192536,2.63028,-0.4277793,0.24198649999999997,0.1443693,-0.003111913,-0.002107135,-0.0017720260000000001,0,0,0.06321584,0.03092435,-7.0356577,106.9244028,1022840,98779,-1215,967,81,-167.7865,4.828725,0.0,1579,1672,1660,1417,1463,1445,0,0,0,0,0,0,0,0,0,0,9.845134,15.4617,-1.0630389999999998,148,69,23,40.86,4.17,1.24,-632.7816,47.731790000000004,-113,-113
79567,9/12/2019, 10:02:15 ,1568260000000000.0,1651592,902.9957,0.44103290000000006,5958,5083,5029,0.5543623000000001,0.11143620000000001,2.696615,-0.34039790000000003,0.06074522,0.20596020000000004,-0.0031206240000000002,-0.002111604,-0.001765017,0,0,0.06064019999999999,0.03524716,-7.0357269,106.9244427,1022450,98386,-1393,643,53,-168.2102,4.813873,0.0,1606,1666,1644,1408,1478,1466,0,0,0,0,0,0,0,0,0,0,9.841602,15.340520000000001,0.05213967,153,68,23,40.53,4.76,1.59,-674.3427,48.8167,-110,-110
79581,9/12/2019, 10:02:15 ,1568260000000000.0,1651913,903.0243,0.3717466,5956,5064,4884,0.3522595,0.07666009,2.765562,-0.7320333000000001,-0.1609689,0.2716201,-0.0031124309999999997,-0.002105614,-0.001751752,0,0,0.05291674,0.0363441,-7.0357605,106.9244562,1022380,98309,-1435,547,3,-168.6405,4.8011,0.0,1659,1666,1628,1393,1507,1508,0,0,0,0,0,0,0,0,0,0,9.420669,15.363389999999999,-0.05920403,157,66,23,40.68,4.92,1.68,-692.8058,49.008340000000004,-108,-108
79594,9/12/2019, 10:02:15 ,1568260000000000.0,1652230,903.0793,0.4814145,5955,5056,5000,0.3444072,0.03316039,2.8740330000000003,0.4077963,0.07825406,0.38521170000000005,-0.003105815,-0.002099079,-0.001741704,0,0,0.04480273,0.02592104,-7.0357973,106.9244683,1022510,98444,-1465,461,-66,-169.0397,4.789244999999999,0.0,1659,1679,1612,1393,1507,1509,0,0,0,0,0,0,0,0,0,0,9.381924,15.361629999999998,-1.6910310000000002,162,64,23,40.78,4.91,1.62,-774.3332,49.165040000000005,-106,-106
79607,9/12/2019, 10:02:16 ,1568260000000000.0,1652549,903.0947,0.535432,5953,5075,5015,0.5255159,0.03486629,2.9864759999999997,0.7569294,0.3106,0.281617,-0.003105188,-0.0020976239999999998,-0.0017388070000000002,0,0,0.04952899,0.042352499999999994,-7.0358373,106.9244787,1022700,98636,-1493,354,-48,-169.2484,4.783194,0.0,1604,1689,1620,1409,1477,1465,0,0,0,0,0,0,0,0,0,0,10.39484,15.346420000000002,0.7397855999999999,170,65,23,40.82,4.78,1.49,-797.2664,49.202420000000004,-104,-104
79625,9/12/2019, 10:02:16 ,1568260000000000.0,1652913,903.0079,0.534454,5951,5070,4998,0.7465483,0.07749538,3.111528,0.30876709999999996,0.33063159999999997,0.1373854,-0.0030965690000000004,-0.002090392,-0.0017363839999999999,0,0,0.04504741,0.08925889,-7.0358726,106.9244842,1022760,98690,-1512,186,-25,-169.4049,4.775023,0.0,1550,1698,1668,1425,1447,1422,0,0,0,0,0,0,0,0,0,0,10.95348,15.22662,0.1490359,178,73,23,36.38,4.65,1.31,-818.5206,48.600359999999995,-100,-100
79638,9/12/2019, 10:02:16 ,1568260000000000.0,1653191,903.0313,0.6692979,5950,5075,5008,0.769383,0.1209903,-3.0861970000000003,-0.1703991,0.32810100000000003,0.06949778,-0.003092116,-0.002085805,-0.001735738,0,0,0.05554811,0.13716579999999998,-7.0359113,106.9244846,1022760,98698,-1521,-66,-25,-169.5302,4.768986,0.0,1528,1684,1700,1432,1435,1404,0,0,0,0,0,0,0,0,0,0,10.96747,15.257179999999998,0.4563826,183,75,23,32.63,4.68,1.3,-831.048,47.92249,-99,-99
79652,9/12/2019, 10:02:16 ,1568260000000000.0,1653492,902.9889999999999,0.6886536999999999,5949,5049,4964,0.672081,0.1581694,-3.0104319999999998,-0.4823929,0.1799158,0.107946,-0.00308607,-0.00208232,-0.0017268379999999999,0,0,0.06119916,0.1609775,-7.0359817,106.9244689,1022860,98799,-1469,-465,-49,-169.81799999999998,4.768930999999999,0.0,1528,1657,1676,1432,1435,1404,0,0,0,0,0,0,0,0,0,0,11.659239999999999,15.389129999999998,1.342945,188,71,23,26.93,4.68,1.26,-818.425,46.39928,-97,-97
79670,9/12/2019, 10:02:17 ,1568260000000000.0,1653869,902.9727,0.6438788000000001,5946,5090,4991,0.4618968,0.1406063,-2.9651959999999997,-0.6882443,-0.09927855,0.22908579999999998,-0.0030957190000000002,-0.00208817,-0.001726986,0,0,0.05871708,0.149911,-7.0360177,106.9244549,1023040,98976,-1429,-566,-72,-170.1403,4.771432,0.0,1563,1643,1628,1421,1455,1432,0,0,0,0,0,0,0,0,0,0,11.63679,15.386820000000002,0.8202139,190,65,23,21.28,4.42,0.9899998999999999,-843.2812,43.07533,-93,-93
79684,9/12/2019, 10:02:17 ,1568260000000000.0,1654195,902.8745,0.8671474,5945,5074,4986,0.2951862,0.07258905,-2.8950080000000002,-0.1551253,-0.04060376,0.3105739,-0.003090078,-0.002083532,-0.00171759,0,0,0.06250147,0.1338936,-7.0360534,106.9244389,1023190,99125,-1405,-616,-18,-170.5142,4.7774790000000005,0.0,1574,1656,1596,1418,1460,1440,0,0,0,0,0,0,0,0,0,0,11.44859,15.36795,1.267053,195,62,23,20.48,4.3,0.88,-847.7939,41.663909999999994,-92,-92
79700,9/12/2019, 10:02:18 ,1568260000000000.0,1654573,902.9565,0.6809626,5943,5083,4964,0.2781038,0.07121474,-2.756255,-0.2331746,-0.05140805,0.1361054,-0.00308273,-0.00207813,-0.001710221,0,0,0.07063483,0.13089289999999998,-7.0360856,106.9244231,1023210,99140,-1371,-676,0,-170.7169,4.779644,0.0,1576,1655,1596,1418,1462,1442,0,0,0,0,0,0,0,0,0,0,12.2331,15.28006,-1.395651,200,62,23,18.53,4.3,0.87,-911.3802,39.57378,-90,-90
79718,9/12/2019, 10:02:18 ,1568260000000000.0,1654891,902.9506,0.5365331999999999,5942,5070,5008,0.2762134,0.04613233,-2.716549,-0.02375394,0.02730908,0.1400006,-0.003078315,-0.002073443,-0.0017064570000000002,0,0,0.05726872,0.1281884,-7.0361522,106.9243829,1023290,99225,-1301,-808,-39,-170.8782,4.783765,0.0,1569,1666,1588,1420,1458,1437,0,0,0,0,0,0,0,0,0,0,10.90516,15.301060000000001,-0.8954472,203,61,23,14.79,4.2,0.79,-895.4542,35.80999,-86,-86
79731,9/12/2019, 10:02:18 ,1568260000000000.0,1655192,902.9481,0.6043977,5941,5082,4986,0.2588981,0.05416649,-2.666793,-0.03802201,0.06484515,0.140928,-0.0030782279999999997,-0.002072647,-0.001706925,0,0,0.05063231,0.1306466,-7.0361840,106.9243610,1023320,99254,-1274,-857,-22,-171.0087,4.784732,0.0,1565,1661,1588,1421,1456,1434,0,0,0,0,0,0,0,0,0,0,10.81708,15.362729999999999,1.559919,206,61,23,13.77,4.18,0.76,-898.2035,34.280640000000005,-85,-85
79745,9/12/2019, 10:02:19 ,1568260000000000.0,1655551,902.9836,0.5776058000000001,5938,5069,4950,0.2564163,0.06001618,-2.617044,0.007160809000000001,0.03797303,0.1455933,-0.003069246,-0.0020658779999999997,-0.00170085,0,0,0.04286671,0.1363885,-7.0362176,106.9243356,1023310,99247,-1234,-912,-18,-171.0805,4.786575,0.0,1560,1659,1588,1422,1453,1429,0,0,0,0,0,0,0,0,0,0,10.43556,15.36602,-0.7663865,209,61,23,12.04,4.22,0.76,-900.1999,31.987379999999998,-82,-82
79758,9/12/2019, 10:02:19 ,1568260000000000.0,1655831,902.9139,0.6588712,5937,5093,4976,0.2233694,0.07425917,-2.572701,-0.13996879999999998,0.03294598,0.13861289999999998,-0.0030660329999999997,-0.0020622789999999998,-0.001700647,0,0,0.04388788,0.14276329999999998,-7.0362476,106.9243110,1023310,99246,-1190,-956,-31,-171.1566,4.786067,0.0,1561,1653,1588,1422,1453,1430,0,0,0,0,0,0,0,0,0,0,11.03623,15.30204,0.14333929999999998,212,61,23,10.86,4.25,0.76,-896.9534,30.44653,-81,-81
79776,9/12/2019, 10:02:19 ,1568260000000000.0,1656229,902.9236,0.7685524,5935,5099,4988,0.18819070000000002,0.0453403,-2.54122,0.004521185,-0.108259,0.1353479,-0.00306954,-0.002063256,-0.0017045110000000001,0,0,0.03954009,0.14166120000000001,-7.0362767,106.9242852,1023460,99395,-1147,-998,-86,-171.2062,4.784599,0.0,1561,1664,1588,1422,1453,1430,0,0,0,0,0,0,0,0,0,0,10.66751,15.210529999999999,0.1427634,214,61,23,7.77,3.98,0.52,-846.3314,25.84044,-76,-76
79789,9/12/2019, 10:02:20 ,1568260000000000.0,1656550,902.863,0.6736101999999999,5934,5088,4998,0.21455389999999996,0.04806891,-2.513236,-0.03352898,0.09723181,0.05298146,-0.003067062,-0.00206105,-0.0017040070000000002,0,0,0.03460333,0.1410744,-7.0363042,106.9242591,1023640,99575,-1110,-1032,-71,-171.2088,4.783328,0.0,1550,1662,1580,1425,1447,1422,0,0,0,0,0,0,0,0,0,0,11.45748,15.158370000000001,1.51405,215,60,23,6.91,3.84,0.4,-837.1514,24.36459,-75,-75
79803,9/12/2019, 10:02:20 ,1568260000000000.0,1656850,902.8933,0.6743854,5933,5082,4954,0.13726549999999998,0.05794284,-2.496899,-0.1986618,-0.02694346,0.07003853,-0.003059756,-0.00205467,-0.001701506,0,0,0.03453515,0.13413370000000002,-7.0363571,106.9242042,1024160,100097,-1034,-1076,-135,-171.24400000000003,4.782412,0.0,1561,1653,1572,1422,1453,1431,0,0,0,0,0,0,0,0,0,0,11.59042,15.02074,1.780059,216,58,23,5.98,3.52,0.16,-827.6438,22.14236,-72,-72
79818,9/12/2019, 10:02:20 ,1568260000000000.0,1657174,902.8218,0.7422436,5931,5070,5010,0.13885920000000002,0.04134145,-2.478022,0.1010783,-0.06907167,0.07657661,-0.0030566240000000004,-0.002052131,-0.001699798,0,0,0.03571371,0.12667089999999998,-7.0363822,106.9241762,1024550,100489,-998,-1092,-150,-171.2823,4.7816,0.0,1555,1658,1540,1424,1450,1426,0,0,0,0,0,0,0,0,0,0,11.92047,14.873070000000002,-0.1559747,218,57,23,5.52,3.03,-0.2,-813.9377,20.00068,-70,-70
79835,9/12/2019, 10:02:20 ,1568260000000000.0,1657491,902.8043,0.6549441,5930,5093,4986,0.12342280000000001,0.03748387,-2.4693419999999997,-0.3235314,0.06363697,0.02071035,-0.0030614740000000002,-0.00205353,-0.001703841,0,0,0.03232693,0.1214991,-7.0364063,106.9241480,1024940,100871,-974,-1096,-134,-171.2939,4.7814309999999995,0.0,1581,1648,1524,1416,1464,1446,0,0,0,0,0,0,0,0,0,0,11.914760000000001,14.748820000000002,1.642902,218,54,23,5.49,2.04,-0.89,-774.5615,16.6631,-65,-65
